     3.02           OBSERVATION DATA    M: Mixed            RINEX VERSION / TYPE
CHC                 CHC                 20220602 033024 UTC PGM / RUN BY / DATE 
3312861                                                     MARKER NAME         
3312861                                                     MARKER NUMBER       
CHC                 CHC                                     OBSERVER / AGENCY   
3312861             CHC I90             2.2.2               REC # / TYPE / VERS 
3312861             CHCI90                                  ANT # / TYPE        
 -2156267.5946  4373762.4864  4097439.3811                  APPROX POSITION XYZ 
        0.3000        0.0000        0.0000                  ANTENNA: DELTA H/E/N
HUACE ANT PHASECENTER                                       COMMENT             
G   24 C1C L1C D1C S1C C2P L2P D2P S2P C2D L2D D2D S2D C2X  SYS / # / OBS TYPES 
       L2X D2X S2X C5I L5I D5I S5I C5Q L5Q D5Q S5Q          SYS / # / OBS TYPES 
R   12 C1C L1C D1C S1C C2C L2C D2C S2C C2P L2P D2P S2P      SYS / # / OBS TYPES 
E   12 C1X L1X D1X S1X C5X L5X D5X S5X C7X L7X D7X S7X      SYS / # / OBS TYPES 
C   24 C1I L1I D1I S1I C1Q L1Q D1Q S1Q C7I L7I D7I S7I C7Q  SYS / # / OBS TYPES 
       L7Q D7Q S7Q C6I L6I D6I S6I C6Q L6Q D6Q S6Q          SYS / # / OBS TYPES 
     2.000                                                  INTERVAL            
  2022     6     2     3    32    2.0000000     GPS         TIME OF FIRST OBS   
G                                                           SYS / PHASE SHIFT   
R                                                           SYS / PHASE SHIFT   
E                                                           SYS / PHASE SHIFT   
C                                                           SYS / PHASE SHIFT   
 C1C    0.000 C1P    0.000 C2C    0.000 C2P    0.000        GLONASS COD/PHS/BIS 
                                                            END OF HEADER       
> 2022  6  2  3 32  2.0000000  0 38
G01  20527270.649   107871535.360       -1989.109          47.500           0.000           0.000           0.000           0.000    20527272.630    84055747.531       -1549.950          46.500           0.000           0.000           0.000           0.000           0.000           0.000           0.000           0.000    20527270.737    80553419.847       -1485.362          52.250  
G03  22371270.242   117561814.244        2376.102          43.000           0.000           0.000           0.000           0.000    22371274.901    91606625.643        1851.435          41.750           0.000           0.000           0.000           0.000           0.000           0.000           0.000           0.000    22371272.829    87789677.432        1774.370          47.750  
G06  24306085.285   127729347.108        3506.681          38.250           0.000           0.000           0.000           0.000    24306092.959    99529393.598        2732.485          41.000           0.000           0.000           0.000           0.000           0.000           0.000           0.000           0.000    24306094.069    95382333.607        2618.688          47.750  
G08  24651165.933   129542743.862       -2773.414          37.250           0.000           0.000           0.000           0.000    24651174.809   100942400.939       -2161.047          35.250           0.000           0.000           0.000           0.000           0.000           0.000           0.000           0.000    24651169.932    96736483.022       -2070.996          43.250  
G14  20254655.000   106438928.080         509.340          47.250           0.000           0.000           0.000           0.000    20254654.315    82939424.215         396.886          46.000           0.000           0.000           0.000           0.000           0.000           0.000           0.000           0.000    20254657.365    79483625.800         380.385          55.000  
G17  21466177.517   112805524.141        1375.601          45.500           0.000           0.000           0.000           0.000    21466177.938    87900398.413        1071.909          43.000           0.000           0.000           0.000           0.000           0.000           0.000           0.000           0.000           0.000           0.000           0.000           0.000  
G19  22902120.461   120351462.330        2609.407          41.750           0.000           0.000           0.000           0.000    22902119.663    93780357.469        2033.304          39.000           0.000           0.000           0.000           0.000           0.000           0.000           0.000           0.000           0.000           0.000           0.000           0.000  
G21  23468699.214   123328844.461       -3078.152          41.500           0.000           0.000           0.000           0.000    23468698.204    96100402.378       -2398.562          37.750           0.000           0.000           0.000           0.000           0.000           0.000           0.000           0.000           0.000           0.000           0.000           0.000  
G28  21511757.357   113045046.431        1965.417          46.750           0.000           0.000           0.000           0.000    21511755.437    88087041.883        1531.507          43.250           0.000           0.000           0.000           0.000           0.000           0.000           0.000           0.000           0.000           0.000           0.000           0.000  
G30  23146832.195   121637420.062       -2973.955          40.750           0.000           0.000           0.000           0.000    23146836.971    94782419.001       -2317.323          42.000           0.000           0.000           0.000           0.000           0.000           0.000           0.000           0.000    23146835.991    90833155.865       -2220.818          49.500  
E02  23411988.529   123030837.916         655.642          45.750    23411989.165    91873674.034         489.582          51.000    23411987.659    94270371.535         502.406          51.500  
E11  23765680.106   124889492.819       -2036.374          40.250    23765676.618    93261618.778       -1520.761          43.750    23765675.077    95694523.542       -1560.445          44.750  
E25  24469210.022   128586562.815       -1930.986          44.500    24469211.883    96022441.944       -1441.971          49.500    24469210.420    98527369.189       -1479.578          51.000  
E30  26995386.744   141861711.242        2649.426          37.500    26995387.911   105935697.686        1978.460          43.750    26995385.835   108699234.608        2030.064          44.500  
E34  26255341.113   137972746.817        2395.101          39.000    26255346.801   103031619.955        1788.470          47.250    26255344.184   105719390.238        1835.213          47.000  
E36  23383923.321   122883346.843         302.354          45.000    23383925.082    91763543.647         225.841          50.750    23383923.660    94157370.213         231.689          51.500  
C01  38057531.834   198175555.641          35.123          43.250           0.000           0.000           0.000           0.000    38057530.934   153241905.564          27.152          44.250           0.000           0.000           0.000           0.000    38057532.979   161033877.179          28.571          42.500           0.000           0.000           0.000           0.000  
C02  38427686.461   200103047.521          39.333          38.750           0.000           0.000           0.000           0.000    38427681.659   154732350.345          30.496          44.750           0.000           0.000           0.000           0.000    38427685.141   162600110.332          31.933          41.750           0.000           0.000           0.000           0.000  
C03  37699506.931   196311224.146          67.543          43.500           0.000           0.000           0.000           0.000    37699504.401   151800281.145          52.196          46.250           0.000           0.000           0.000           0.000    37699504.370   159518940.631          54.797          43.500           0.000           0.000           0.000           0.000  
C04  38900661.922   202565948.465          20.269          39.750           0.000           0.000           0.000           0.000    38900658.325   156636830.862          15.706          42.750           0.000           0.000           0.000           0.000    38900659.091   164601417.936          16.445          41.250           0.000           0.000           0.000           0.000  
C05  39949786.527   208029022.255          42.360          34.500           0.000           0.000           0.000           0.000    39949787.467   160861236.224          32.712          39.500           0.000           0.000           0.000           0.000    39949788.244   169040626.823          34.373          39.250           0.000           0.000           0.000           0.000  
C07  35822869.338   186539079.497          70.988          47.500           0.000           0.000           0.000           0.000    35822862.416   144243822.490          54.869          49.000           0.000           0.000           0.000           0.000    35822861.706   151578250.463          57.665          48.000           0.000           0.000           0.000           0.000  
C08  37798066.015   196824445.435        1471.753          42.000           0.000           0.000           0.000           0.000    37798060.927   152197133.073        1138.034          45.500           0.000           0.000           0.000           0.000    37798060.149   159935962.713        1195.881          43.750           0.000           0.000           0.000           0.000  
C10  36064737.004   187798553.638         380.588          47.000           0.000           0.000           0.000           0.000    36064733.815   145217739.788         294.218          48.000           0.000           0.000           0.000           0.000    36064732.178   152601683.221         309.160          47.000           0.000           0.000           0.000           0.000  
C11  23672453.769   123268683.340        1939.845          44.000           0.000           0.000           0.000           0.000    23672453.025    95319159.689        1500.086          48.000           0.000           0.000           0.000           0.000    23672451.204   100165884.497        1576.252          46.750           0.000           0.000           0.000           0.000  
C12  21955023.284   114325564.576        -241.349          49.000           0.000           0.000           0.000           0.000    21955020.157    88403766.938        -186.651          51.750           0.000           0.000           0.000           0.000    21955019.511    92898871.720        -196.102          51.000           0.000           0.000           0.000           0.000  
C13  38805735.344   202071648.549        1455.418          42.500           0.000           0.000           0.000           0.000    38805740.113   156254630.999        1125.452          43.500           0.000           0.000           0.000           0.000    38805737.268   164199775.139        1182.638          43.000           0.000           0.000           0.000           0.000  
C22  25583151.517   133218176.349        1843.333          43.750           0.000           0.000           0.000           0.000           0.000           0.000           0.000           0.000           0.000           0.000           0.000           0.000    25583145.670   108250661.800        1498.039          42.750           0.000           0.000           0.000           0.000  
C23  26575139.512   138383729.663        2798.078          39.750           0.000           0.000           0.000           0.000           0.000           0.000           0.000           0.000           0.000           0.000           0.000           0.000    26575132.214   112448080.079        2273.654          41.250           0.000           0.000           0.000           0.000  
C24  23383861.719   121765903.755       -2497.264          48.500           0.000           0.000           0.000           0.000           0.000           0.000           0.000           0.000           0.000           0.000           0.000           0.000    23383858.122    98944756.804       -2029.214          50.000           0.000           0.000           0.000           0.000  
C25  23238197.526   121007392.681         640.781          47.750           0.000           0.000           0.000           0.000           0.000           0.000           0.000           0.000           0.000           0.000           0.000           0.000    23238195.322    98328408.291         520.719          49.250           0.000           0.000           0.000           0.000  
C34  22537356.308   117357928.071        1228.799          49.250           0.000           0.000           0.000           0.000           0.000           0.000           0.000           0.000           0.000           0.000           0.000           0.000    22537355.649    95362927.139         998.515          50.000           0.000           0.000           0.000           0.000  
C38  37044299.345   192899389.635        1209.763          47.750           0.000           0.000           0.000           0.000           0.000           0.000           0.000           0.000           0.000           0.000           0.000           0.000    37044296.121   156746539.651         983.046          49.000           0.000           0.000           0.000           0.000  
C40  35881434.888   186844048.031          72.460          49.750           0.000           0.000           0.000           0.000           0.000           0.000           0.000           0.000           0.000           0.000           0.000           0.000    35881431.606   151826079.310          58.848          50.250           0.000           0.000           0.000           0.000  
C44  22049390.420   114816963.771       -1357.148          50.750           0.000           0.000           0.000           0.000           0.000           0.000           0.000           0.000           0.000           0.000           0.000           0.000    22049388.266    93298178.351       -1102.763          50.750           0.000           0.000           0.000           0.000  
C56  35620222.567   185483847.586         176.889          48.500           0.000           0.000           0.000           0.000           0.000           0.000           0.000           0.000           0.000           0.000           0.000           0.000    35620221.684   150720815.630         143.738          48.000           0.000           0.000           0.000           0.000  
C57  31967661.979   166464006.267       -2256.145          45.000           0.000           0.000           0.000           0.000           0.000           0.000           0.000           0.000           0.000           0.000           0.000           0.000    31967784.021   135266156.370       -1833.339          45.500           0.000           0.000           0.000           0.000  
C59  38023247.881   197997029.683          10.043          45.500           0.000           0.000           0.000           0.000           0.000           0.000           0.000           0.000           0.000           0.000           0.000           0.000    38023234.299   160888747.261           8.184          46.500           0.000           0.000           0.000           0.000  
> 2022  6  2  3 32  4.0000000  0 44
G01  20528027.937   107875515.231       -1990.637          47.500           0.000           0.000           0.000           0.000    20528030.138    84058848.737       -1551.161          46.500           0.000           0.000           0.000           0.000           0.000           0.000           0.000           0.000    20528028.053    80556391.832       -1486.544          52.000  
G03  22370366.023   117557063.716        2374.640          43.000           0.000           0.000           0.000           0.000    22370370.882    91602923.909        1850.392          41.750           0.000           0.000           0.000           0.000           0.000           0.000           0.000           0.000    22370368.836    87786129.960        1773.224          47.500  
G06  24304750.901   127722334.618        3506.010          38.250           0.000           0.000           0.000           0.000    24304758.793    99523929.340        2731.908          41.000           0.000           0.000           0.000           0.000           0.000           0.000           0.000           0.000    24304759.668    95377097.049        2617.980          47.750  
G08  24652221.814   129548291.411       -2773.991          37.500           0.000           0.000           0.000           0.000    24652230.793   100946723.681       -2161.559          35.250           0.000           0.000           0.000           0.000           0.000           0.000           0.000           0.000    24652225.559    96740625.680       -2071.583          43.250  
G14  20254461.452   106437911.208         507.617          47.000           0.000           0.000           0.000           0.000    20254460.824    82938631.855         395.545          46.000           0.000           0.000           0.000           0.000           0.000           0.000           0.000           0.000    20254463.860    79482866.449         379.090          54.750  
G17  21465654.277   112802773.908        1374.772          45.750           0.000           0.000           0.000           0.000    21465654.412    87898255.388        1071.173          42.750           0.000           0.000           0.000           0.000           0.000           0.000           0.000           0.000           0.000           0.000           0.000           0.000  
G19  22901127.675   120346244.410        2608.635          42.000           0.000           0.000           0.000           0.000    22901126.712    93776291.578        2032.699          39.000           0.000           0.000           0.000           0.000           0.000           0.000           0.000           0.000           0.000           0.000           0.000           0.000  
G21  23469870.775   123335001.522       -3078.832          41.750           0.000           0.000           0.000           0.000    23469869.903    96105200.079       -2399.093          37.750           0.000           0.000           0.000           0.000           0.000           0.000           0.000           0.000           0.000           0.000           0.000           0.000  
G28  21511009.609   113041116.990        1964.215          46.750           0.000           0.000           0.000           0.000    21511007.736    88083979.975        1530.539          43.000           0.000           0.000           0.000           0.000           0.000           0.000           0.000           0.000           0.000           0.000           0.000           0.000  
G30  23147964.202   121643369.174       -2975.063          40.500           0.000           0.000           0.000           0.000    23147968.936    94787054.658       -2318.180          41.750           0.000           0.000           0.000           0.000           0.000           0.000           0.000           0.000    23147968.101    90837598.375       -2221.628          49.500  
R02  23250274.475   124067918.190        1480.371          41.000           0.000           0.000           0.000           0.000    23250284.870    96497312.596        1151.800          39.250  
R09  21072650.442   112526777.218        2880.389          49.500           0.000           0.000           0.000           0.000    21072650.637    87520828.215        2240.492          48.250  
R15  22363243.952   119502395.504       -4295.910          47.750           0.000           0.000           0.000           0.000    22363250.414    92946333.011       -3341.451          43.750  
R17  22656317.060   121238528.471       -3350.053          47.000           0.000           0.000           0.000           0.000    22656323.821    94296660.480       -2605.280          43.750  
R18  19777029.138   105571124.689       -1525.488          52.500           0.000           0.000           0.000           0.000    19777027.445    82110868.291       -1186.525          49.000  
R19  20266245.947   108410749.860        1398.273          38.500           0.000           0.000           0.000           0.000    20266248.170    84319480.787        1087.599          45.750  
E02  23411739.237   123029528.110         654.319          45.750    23411739.922    91872695.939         488.577          51.000    23411738.411    94269367.916         501.382          51.750  
E11  23766455.708   124893566.963       -2037.454          40.250    23766451.916    93264661.149       -1521.516          43.500    23766450.377    95697645.279       -1561.153          45.000  
E25  24469945.059   128590426.151       -1932.159          44.500    24469947.037    96025326.906       -1442.903          49.250    24469945.608    98530329.406       -1480.519          51.250  
E30  26994378.422   141856413.302        2648.663          37.500    26994379.704   105931741.447        1977.864          43.500    26994377.573   108695175.144        2029.533          44.500  
E34  26254429.826   137967957.800        2394.048          39.250    26254435.457   103028043.748        1787.790          47.000    26254432.852   105715720.722        1834.486          47.000  
E36  23383808.705   122882743.421         301.180          45.250    23383810.256    91763093.054         224.835          50.750    23383808.826    94156907.857         230.730          51.500  
C01  38057518.549   198175486.314          34.378          43.250           0.000           0.000           0.000           0.000    38057517.662   153241851.940          26.622          44.500           0.000           0.000           0.000           0.000    38057519.683   161033820.827          28.040          42.500           0.000           0.000           0.000           0.000  
C02  38427671.554   200102969.468          38.709          38.750           0.000           0.000           0.000           0.000    38427666.666   154732289.981          30.067          45.000           0.000           0.000           0.000           0.000    38427670.154   162600046.906          31.448          41.750           0.000           0.000           0.000           0.000  
C03  37699481.159   196311089.892          66.909          43.500           0.000           0.000           0.000           0.000    37699478.599   151800177.335          51.711          46.250           0.000           0.000           0.000           0.000    37699478.587   159518831.538          54.229          43.500           0.000           0.000           0.000           0.000  
C04  38900654.250   202565908.591          19.728          39.750           0.000           0.000           0.000           0.000    38900650.620   156636800.037          15.185          42.750           0.000           0.000           0.000           0.000    38900651.412   164601385.540          15.923          41.000           0.000           0.000           0.000           0.000  
C05  39949770.607   208028938.229          41.782          34.750           0.000           0.000           0.000           0.000    39949771.306   160861171.270          32.386          39.750           0.000           0.000           0.000           0.000    39949772.159   169040558.573          33.879          39.250           0.000           0.000           0.000           0.000  
C07  35822842.233   186538938.374          70.290          47.500           0.000           0.000           0.000           0.000    35822835.305   144243713.357          54.366          49.000           0.000           0.000           0.000           0.000    35822834.591   151578135.784          57.088          48.000           0.000           0.000           0.000           0.000  
C08  37797500.913   196821502.869        1470.869          42.000           0.000           0.000           0.000           0.000    37797495.913   152194857.681        1137.457          45.500           0.000           0.000           0.000           0.000    37797495.040   159933571.624        1195.266          43.500           0.000           0.000           0.000           0.000  
C10  36064591.046   187797793.432         379.852          47.000           0.000           0.000           0.000           0.000    36064587.836   145217151.925         293.818          48.000           0.000           0.000           0.000           0.000    36064586.189   152601065.476         308.675          46.750           0.000           0.000           0.000           0.000  
C11  23671708.961   123264804.701        1938.942          44.000           0.000           0.000           0.000           0.000    23671708.185    95316160.491        1499.294          48.000           0.000           0.000           0.000           0.000    23671706.330   100162732.787        1575.507          46.750           0.000           0.000           0.000           0.000  
C12  21955116.291   114326048.536        -242.457          49.000           0.000           0.000           0.000           0.000    21955113.097    88404141.156        -187.490          51.750           0.000           0.000           0.000           0.000    21955112.442    92899264.973        -197.033          51.000           0.000           0.000           0.000           0.000  
C13  38805176.401   202068738.440        1454.682          42.500           0.000           0.000           0.000           0.000    38805181.372   156252380.727        1124.874          43.750           0.000           0.000           0.000           0.000    38805178.373   164197410.433        1182.070          43.000           0.000           0.000           0.000           0.000  
C22  25582443.934   133214490.933        1842.103          43.750           0.000           0.000           0.000           0.000           0.000           0.000           0.000           0.000           0.000           0.000           0.000           0.000    25582437.905   108247667.124        1496.810          42.500           0.000           0.000           0.000           0.000  
C23  26574065.003   138378134.698        2796.970          39.500           0.000           0.000           0.000           0.000           0.000           0.000           0.000           0.000           0.000           0.000           0.000           0.000    26574057.693   112443533.707        2272.834          41.250           0.000           0.000           0.000           0.000  
C24  23384821.155   121770899.639       -2498.549          48.500           0.000           0.000           0.000           0.000           0.000           0.000           0.000           0.000           0.000           0.000           0.000           0.000    23384817.568    98948816.373       -2030.267          49.750           0.000           0.000           0.000           0.000  
C25  23237951.719   121006112.945         639.058          47.750           0.000           0.000           0.000           0.000           0.000           0.000           0.000           0.000           0.000           0.000           0.000           0.000    23237949.569    98327368.398         519.303          49.000           0.000           0.000           0.000           0.000  
C34  22536884.539   117355471.663        1227.738          49.250           0.000           0.000           0.000           0.000           0.000           0.000           0.000           0.000           0.000           0.000           0.000           0.000    22536883.940    95360931.113         997.593          50.000           0.000           0.000           0.000           0.000  
C38  37043834.894   192896971.169        1208.869          47.500           0.000           0.000           0.000           0.000           0.000           0.000           0.000           0.000           0.000           0.000           0.000           0.000    37043831.683   156744574.443         982.292          48.750           0.000           0.000           0.000           0.000  
C40  35881407.213   186843903.937          71.761          49.500           0.000           0.000           0.000           0.000           0.000           0.000           0.000           0.000           0.000           0.000           0.000           0.000    35881403.928   151825962.222          58.298          50.000           0.000           0.000           0.000           0.000  
C44  22049911.843   114819679.121       -1358.070          50.750           0.000           0.000           0.000           0.000           0.000           0.000           0.000           0.000           0.000           0.000           0.000           0.000    22049909.714    93300384.795       -1103.545          50.750           0.000           0.000           0.000           0.000  
C56  35620154.765   185483494.627         176.200          48.500           0.000           0.000           0.000           0.000           0.000           0.000           0.000           0.000           0.000           0.000           0.000           0.000    35620153.914   150720528.826         143.151          47.750           0.000           0.000           0.000           0.000  
C57  31968528.727   166468519.514       -2256.946          45.000           0.000           0.000           0.000           0.000           0.000           0.000           0.000           0.000           0.000           0.000           0.000           0.000    31968650.739   135269823.736       -1833.916          45.250           0.000           0.000           0.000           0.000  
C59  38023244.119   197997010.308           9.465          45.500           0.000           0.000           0.000           0.000           0.000           0.000           0.000           0.000           0.000           0.000           0.000           0.000    38023230.565   160888731.511           7.718          46.250           0.000           0.000           0.000           0.000  
> 2022  6  2  3 32  6.0000000  0 43
G01  20528785.789   107879497.775       -1991.633          47.750           0.000           0.000           0.000           0.000    20528788.078    84061952.028       -1551.925          46.500           0.000           0.000           0.000           0.000           0.000           0.000           0.000           0.000    20528785.885    80559365.811       -1487.299          52.000  
G03  22369462.396   117552315.682        2373.662          42.750           0.000           0.000           0.000           0.000    22369467.275    91599224.148        1849.703          41.250           0.000           0.000           0.000           0.000           0.000           0.000           0.000           0.000    22369465.293    87782584.353        1772.573          47.250  
G06  24303416.767   127715323.495        3505.573          38.750           0.000           0.000           0.000           0.000    24303424.862    99518466.132        2731.619          41.250           0.000           0.000           0.000           0.000           0.000           0.000           0.000           0.000    24303425.498    95371861.474        2617.757          47.750  
G08  24653277.836   129553839.764       -2774.019          37.750           0.000           0.000           0.000           0.000    24653286.800   100951047.060       -2161.503          35.250           0.000           0.000           0.000           0.000           0.000           0.000           0.000           0.000    24653281.367    96744768.904       -2071.517          43.000  
G14  20254268.451   106436897.202         506.649          47.250           0.000           0.000           0.000           0.000    20254267.849    82937841.711         394.791          46.000           0.000           0.000           0.000           0.000           0.000           0.000           0.000           0.000    20254270.902    79482109.232         378.317          54.750  
G17  21465131.231   112800025.051        1374.418          45.750           0.000           0.000           0.000           0.000    21465131.168    87896113.417        1070.922          42.750           0.000           0.000           0.000           0.000           0.000           0.000           0.000           0.000           0.000           0.000           0.000           0.000  
G19  22900135.133   120341027.648        2608.374          42.250           0.000           0.000           0.000           0.000    22900134.021    93772226.548        2032.494          39.250           0.000           0.000           0.000           0.000           0.000           0.000           0.000           0.000           0.000           0.000           0.000           0.000  
G21  23471042.604   123341159.539       -3078.971          41.750           0.000           0.000           0.000           0.000    23471041.807    96109998.508       -2399.195          37.750           0.000           0.000           0.000           0.000           0.000           0.000           0.000           0.000           0.000           0.000           0.000           0.000  
G28  21510262.244   113037189.437        1963.628          47.000           0.000           0.000           0.000           0.000    21510260.361    88080919.537        1530.120          43.000           0.000           0.000           0.000           0.000           0.000           0.000           0.000           0.000           0.000           0.000           0.000           0.000  
G30  23149096.507   121649319.901       -2975.483          40.500           0.000           0.000           0.000           0.000    23149101.312    94791691.580       -2318.533          41.750           0.000           0.000           0.000           0.000           0.000           0.000           0.000           0.000    23149100.512    90842042.081       -2221.917          49.500  
R02  23249717.979   124064958.574        1479.439          41.250           0.000           0.000           0.000           0.000    23249730.914    96495015.736        1150.440          39.000  
R09  21071571.092   112521017.485        2879.430          49.000           0.000           0.000           0.000           0.000    21071572.497    87516348.432        2239.570          48.500  
R15  22364850.915   119510982.483       -4296.627          47.750           0.000           0.000           0.000           0.000    22364858.963    92953019.423       -3341.833          43.750  
R17  22657569.388   121245230.226       -3349.671          47.000           0.000           0.000           0.000           0.000    22657574.962    94301868.402       -2605.317          43.500  
R18  19777600.145   105574172.167       -1525.963          52.500           0.000           0.000           0.000           0.000    19777599.530    82113243.659       -1186.842          49.250  
R19  20265724.205   108407958.038        1397.612          38.500           0.000           0.000           0.000           0.000    20265725.414    84317306.272        1086.965          45.750  
E02  23411490.356   123028220.495         653.630          45.750    23411491.085    91871719.473         488.055          50.500    23411489.581    94268365.985         500.758          51.750  
E11  23767231.448   124897642.443       -2037.836          40.250    23767227.466    93267704.515       -1521.776          43.250    23767225.922    95700768.045       -1561.479          44.750  
E25  24470680.526   128594291.467       -1932.811          44.750    24470682.581    96028213.325       -1443.331          49.000    24470681.170    98533291.133       -1481.013          51.250  
E30  26993370.258   141851116.478        2648.393          37.500    26993371.691   105927786.038        1977.687          43.000    26993369.555   108691116.560        2029.282          44.500  
E34  26253518.798   137963170.268        2393.704          39.250    26253524.373   103024468.646        1787.530          46.500    26253521.810   105712052.365        1834.132          46.750  
E36  23383694.418   122882142.058         300.482          45.250    23383695.822    91762643.970         224.407          50.250    23383694.383    94156447.064         230.218          51.500  
C01  38057505.394   198175417.611          34.490          43.500           0.000           0.000           0.000           0.000    38057504.512   153241798.815          26.696          44.500           0.000           0.000           0.000           0.000    38057506.498   161033765.007          28.105          42.500           0.000           0.000           0.000           0.000  
C02  38427656.760   200102892.050          38.876          39.000           0.000           0.000           0.000           0.000    38427651.837   154732230.129          30.002          45.000           0.000           0.000           0.000           0.000    38427655.288   162599983.998          31.635          41.750           0.000           0.000           0.000           0.000  
C03  37699455.478   196310956.278          67.049          43.500           0.000           0.000           0.000           0.000    37699452.913   151800074.018          51.730          46.500           0.000           0.000           0.000           0.000    37699452.934   159518722.963          54.424          43.500           0.000           0.000           0.000           0.000  
C04  38900646.689   202565869.377          19.831          40.000           0.000           0.000           0.000           0.000    38900643.006   156636769.697          15.343          42.750           0.000           0.000           0.000           0.000    38900643.858   164601353.649          16.119          41.000           0.000           0.000           0.000           0.000  
C05  39949754.889   208028854.887          41.875          35.000           0.000           0.000           0.000           0.000    39949755.257   160861106.808          32.331          39.750           0.000           0.000           0.000           0.000    39949756.171   169040490.809          34.187          39.250           0.000           0.000           0.000           0.000  
C07  35822815.275   186538798.088          70.271          47.500           0.000           0.000           0.000           0.000    35822808.335   144243604.884          54.272          49.000           0.000           0.000           0.000           0.000    35822807.639   151578021.792          57.041          48.000           0.000           0.000           0.000           0.000  
C08  37796936.025   196818561.460        1470.757          42.250           0.000           0.000           0.000           0.000    37796931.127   152192583.211        1137.289          45.750           0.000           0.000           0.000           0.000    37796930.170   159931181.495        1195.062          43.750           0.000           0.000           0.000           0.000  
C10  36064445.241   187797033.958         379.834          47.000           0.000           0.000           0.000           0.000    36064441.992   145216564.662         293.734          48.250           0.000           0.000           0.000           0.000    36064440.351   152600448.349         308.647          46.750           0.000           0.000           0.000           0.000  
C11  23670964.408   123260927.515        1938.495          44.500           0.000           0.000           0.000           0.000    23670963.630    95313162.400        1498.968          48.250           0.000           0.000           0.000           0.000    23670961.757   100159582.254        1575.199          46.750           0.000           0.000           0.000           0.000  
C12  21955209.617   114326534.142        -242.923          49.250           0.000           0.000           0.000           0.000    21955206.353    88404516.660        -187.853          51.750           0.000           0.000           0.000           0.000    21955205.689    92899659.560        -197.350          51.000           0.000           0.000           0.000           0.000  
C13  38804617.679   202065829.400        1454.552          42.500           0.000           0.000           0.000           0.000    38804622.814   156250131.272        1124.763          44.000           0.000           0.000           0.000           0.000    38804619.709   164195046.604        1182.004          42.750           0.000           0.000           0.000           0.000  
C22  25581736.626   133210807.525        1841.507          43.750           0.000           0.000           0.000           0.000           0.000           0.000           0.000           0.000           0.000           0.000           0.000           0.000    25581730.503   108244674.049        1496.382          42.750           0.000           0.000           0.000           0.000  
C24  23385780.991   121775897.587       -2499.201          48.750           0.000           0.000           0.000           0.000           0.000           0.000           0.000           0.000           0.000           0.000           0.000           0.000    23385777.396    98952877.606       -2030.770          50.000           0.000           0.000           0.000           0.000  
C25  23237706.502   121004836.029         638.071          47.750           0.000           0.000           0.000           0.000           0.000           0.000           0.000           0.000           0.000           0.000           0.000           0.000    23237704.358    98326330.807         518.484          49.000           0.000           0.000           0.000           0.000  
C34  22536413.068   117353016.874        1227.309          49.500           0.000           0.000           0.000           0.000           0.000           0.000           0.000           0.000           0.000           0.000           0.000           0.000    22536412.548    95358936.397         997.277          50.000           0.000           0.000           0.000           0.000  
C38  37043370.662   192894553.876        1208.655          47.750           0.000           0.000           0.000           0.000           0.000           0.000           0.000           0.000           0.000           0.000           0.000           0.000    37043367.457   156742610.206         982.096          48.750           0.000           0.000           0.000           0.000  
C40  35881379.698   186843760.636          71.789          49.750           0.000           0.000           0.000           0.000           0.000           0.000           0.000           0.000           0.000           0.000           0.000           0.000    35881376.410   151825845.779          58.308          50.000           0.000           0.000           0.000           0.000  
C44  22050433.548   114822395.874       -1358.405          51.000           0.000           0.000           0.000           0.000           0.000           0.000           0.000           0.000           0.000           0.000           0.000           0.000    22050431.446    93302592.377       -1103.815          50.750           0.000           0.000           0.000           0.000  
C56  35620087.147   185483142.626         176.098          48.500           0.000           0.000           0.000           0.000           0.000           0.000           0.000           0.000           0.000           0.000           0.000           0.000    35620086.318   150720242.794         143.114          47.750           0.000           0.000           0.000           0.000  
C57  31969395.647   166473033.685       -2257.029          45.250           0.000           0.000           0.000           0.000           0.000           0.000           0.000           0.000           0.000           0.000           0.000           0.000    31969517.639   135273491.877       -1834.009          45.250           0.000           0.000           0.000           0.000  
C59  38023240.482   197996991.555           9.568          45.750           0.000           0.000           0.000           0.000           0.000           0.000           0.000           0.000           0.000           0.000           0.000           0.000    38023226.958   160888716.282           7.802          46.250           0.000           0.000           0.000           0.000  
> 2022  6  2  3 32  8.0000000  0 43
G01  20529544.059   107883482.463       -1993.151          47.750           0.000           0.000           0.000           0.000    20529546.410    84065056.968       -1553.154          46.750           0.000           0.000           0.000           0.000           0.000           0.000           0.000           0.000    20529544.120    80562341.383       -1488.426          52.250  
G03  22368559.199   117547569.603        2372.246          43.000           0.000           0.000           0.000           0.000    22368564.070    91595525.924        1848.437          41.750           0.000           0.000           0.000           0.000           0.000           0.000           0.000           0.000    22368562.125    87779040.215        1771.501          47.750  
G06  24302082.755   127708313.158        3504.725          38.750           0.000           0.000           0.000           0.000    24302091.043    99513003.543        2730.958          41.250           0.000           0.000           0.000           0.000           0.000           0.000           0.000           0.000    24302091.477    95366626.497        2617.142          48.000  
G08  24654333.813   129559388.315       -2774.689          38.000           0.000           0.000           0.000           0.000    24654342.808   100955370.585       -2162.267          35.000           0.000           0.000           0.000           0.000           0.000           0.000           0.000           0.000    24654337.182    96748912.276       -2071.992          42.750  
G14  20254075.901   106435885.542         504.926          47.250           0.000           0.000           0.000           0.000    20254075.323    82937053.420         393.459          45.750           0.000           0.000           0.000           0.000           0.000           0.000           0.000           0.000    20254078.385    79481353.774         377.060          55.000  
G17  21464608.292   112797276.990        1373.552          45.750           0.000           0.000           0.000           0.000    21464608.157    87893972.066        1070.261          43.000           0.000           0.000           0.000           0.000           0.000           0.000           0.000           0.000           0.000           0.000           0.000           0.000  
G19  22899142.617   120335811.504        2607.666          42.000           0.000           0.000           0.000           0.000    22899141.409    93768162.073        2031.944          39.250           0.000           0.000           0.000           0.000           0.000           0.000           0.000           0.000           0.000           0.000           0.000           0.000  
G21  23472214.551   123347317.996       -3079.651          42.000           0.000           0.000           0.000           0.000    23472213.790    96114797.326       -2399.726          37.750           0.000           0.000           0.000           0.000           0.000           0.000           0.000           0.000           0.000           0.000           0.000           0.000  
G28  21509515.145   113033263.225        1962.418          47.000           0.000           0.000           0.000           0.000    21509513.237    88077860.165        1529.151          43.000           0.000           0.000           0.000           0.000           0.000           0.000           0.000           0.000           0.000           0.000           0.000           0.000  
G30  23150229.051   121655271.724       -2976.647          40.250           0.000           0.000           0.000           0.000    23150233.974    94796329.326       -2319.288          42.000           0.000           0.000           0.000           0.000           0.000           0.000           0.000           0.000    23150233.127    90846486.598       -2222.652          49.250  
R02  23249164.383   124062001.732        1477.344          40.500           0.000           0.000           0.000           0.000    23249176.131    96492715.977        1148.950          38.250  
R09  21070493.067   112515260.335        2877.576          49.250           0.000           0.000           0.000           0.000    21070494.321    87511870.656        2238.126          48.500  
R15  22366459.255   119519576.663       -4297.726          47.750           0.000           0.000           0.000           0.000    22366467.100    92959703.759       -3342.615          44.250  
R17  22658821.563   121251930.046       -3350.239          46.750           0.000           0.000           0.000           0.000    22658826.734    94307079.373       -2605.727          43.250  
R18  19778171.963   105577225.210       -1527.267          52.250           0.000           0.000           0.000           0.000    19778171.357    82115618.243       -1187.867          49.000  
R19  20265201.005   108405164.287        1396.131          38.250           0.000           0.000           0.000           0.000    20265203.021    84315133.353        1085.876          46.250  
E02  23411241.836   123026914.556         652.224          45.750    23411242.566    91870744.260         487.059          50.750    23411241.064    94267365.321         499.836          51.500  
E11  23768007.150   124901718.662       -2038.526          40.500    23768003.144    93270748.467       -1522.335          43.500    23768001.621    95703891.394       -1562.029          44.750  
E25  24471416.278   128598158.223       -1934.078          44.750    24471418.401    96031100.840       -1444.272          49.000    24471417.002    98536253.968       -1481.963          51.000  
E30  26992362.254   141845820.232        2647.694          37.750    26992363.798   105923831.032        1977.193          43.500    26992361.659   108687058.380        2028.760          45.000  
E34  26252607.929   137958383.698        2392.717          39.250    26252613.493   103020894.265        1786.775          46.500    26252610.948   105708384.742        1833.350          46.500  
E36  23383580.435   122881542.194         299.234          45.250    23383581.675    91762196.026         223.448          50.500    23383580.225    94155987.430         229.296          51.250  
C01  38057492.241   198175349.028          34.015          43.500           0.000           0.000           0.000           0.000    38057491.364   153241745.789          26.202          44.500           0.000           0.000           0.000           0.000    38057493.326   161033709.281          27.583          42.500           0.000           0.000           0.000           0.000  
C02  38427642.049   200102814.777          38.113          38.750           0.000           0.000           0.000           0.000    38427637.052   154732170.371          29.602          45.000           0.000           0.000           0.000           0.000    38427640.470   162599921.192          31.188          41.750           0.000           0.000           0.000           0.000  
C03  37699429.826   196310822.798          66.350          43.500           0.000           0.000           0.000           0.000    37699427.246   151799970.782          51.367          46.250           0.000           0.000           0.000           0.000    37699427.292   159518614.473          53.921          43.250           0.000           0.000           0.000           0.000  
C04  38900639.215   202565830.293          19.188          39.750           0.000           0.000           0.000           0.000    38900635.436   156636739.463          14.868          43.000           0.000           0.000           0.000           0.000    38900636.368   164601321.905          15.653          41.000           0.000           0.000           0.000           0.000  
C05  39949739.131   208028771.631          41.251          35.000           0.000           0.000           0.000           0.000    39949739.217   160861042.421          31.967          39.750           0.000           0.000           0.000           0.000    39949740.164   169040423.150          33.740          39.000           0.000           0.000           0.000           0.000  
C07  35822788.388   186538658.122          69.666          47.500           0.000           0.000           0.000           0.000    35822781.413   144243496.643          53.770          49.250           0.000           0.000           0.000           0.000    35822780.749   151577908.044          56.557          48.000           0.000           0.000           0.000           0.000  
C08  37796371.288   196815620.722        1469.909          42.000           0.000           0.000           0.000           0.000    37796366.473   152190309.256        1136.637          46.000           0.000           0.000           0.000           0.000    37796365.438   159928791.908        1194.391          43.500           0.000           0.000           0.000           0.000  
C10  36064299.491   187796274.757         379.238          47.000           0.000           0.000           0.000           0.000    36064296.193   145215977.600         293.241          48.250           0.000           0.000           0.000           0.000    36064294.559   152599831.438         308.126          46.750           0.000           0.000           0.000           0.000  
C11  23670220.007   123257051.198        1937.601          44.250           0.000           0.000           0.000           0.000    23670219.220    95310164.986        1498.335          48.250           0.000           0.000           0.000           0.000    23670217.361   100156432.430        1574.454          46.750           0.000           0.000           0.000           0.000  
C12  21955303.136   114327020.872        -243.985          49.000           0.000           0.000           0.000           0.000    21955299.821    88404893.028        -188.672          51.750           0.000           0.000           0.000           0.000    21955299.160    92900055.068        -198.225          50.750           0.000           0.000           0.000           0.000  
C13  38804059.107   202062920.810        1453.760          42.500           0.000           0.000           0.000           0.000    38804064.304   156247882.195        1124.139          44.000           0.000           0.000           0.000           0.000    38804061.140   164192683.166        1181.306          42.750           0.000           0.000           0.000           0.000  
C22  25581029.595   133207125.625        1840.315          43.250           0.000           0.000           0.000           0.000           0.000           0.000           0.000           0.000           0.000           0.000           0.000           0.000    25581023.418   108241682.205        1495.432          42.750           0.000           0.000           0.000           0.000  
C24  23386741.115   121780897.069       -2500.347          48.500           0.000           0.000           0.000           0.000           0.000           0.000           0.000           0.000           0.000           0.000           0.000           0.000    23386737.513    98956940.098       -2031.813          49.750           0.000           0.000           0.000           0.000  
C25  23237461.740   121003561.424         636.478          47.750           0.000           0.000           0.000           0.000           0.000           0.000           0.000           0.000           0.000           0.000           0.000           0.000    23237459.591    98325295.085         517.152          49.000           0.000           0.000           0.000           0.000  
C34  22535941.830   117350563.189        1226.266          49.500           0.000           0.000           0.000           0.000           0.000           0.000           0.000           0.000           0.000           0.000           0.000           0.000    22535941.360    95356942.579         996.410          49.750           0.000           0.000           0.000           0.000  
C38  37042906.565   192892137.264        1207.891          47.500           0.000           0.000           0.000           0.000           0.000           0.000           0.000           0.000           0.000           0.000           0.000           0.000    37042903.363   156740646.508         981.472          48.750           0.000           0.000           0.000           0.000  
C40  35881352.241   186843617.626          71.184          49.750           0.000           0.000           0.000           0.000           0.000           0.000           0.000           0.000           0.000           0.000           0.000           0.000    35881348.949   151825729.573          57.824          50.000           0.000           0.000           0.000           0.000  
C44  22050955.432   114825113.505       -1359.328          50.750           0.000           0.000           0.000           0.000           0.000           0.000           0.000           0.000           0.000           0.000           0.000           0.000    22050953.343    93304800.672       -1104.560          50.750           0.000           0.000           0.000           0.000  
C56  35620019.628   185482791.061         175.399          48.500           0.000           0.000           0.000           0.000           0.000           0.000           0.000           0.000           0.000           0.000           0.000           0.000    35620018.793   150719957.122         142.527          47.750           0.000           0.000           0.000           0.000  
C57  31970262.627   166477548.261       -2257.635          45.000           0.000           0.000           0.000           0.000           0.000           0.000           0.000           0.000           0.000           0.000           0.000           0.000    31970384.635   135277160.349       -1834.568          45.250           0.000           0.000           0.000           0.000  
C59  38023236.881   197996972.928           8.990          45.500           0.000           0.000           0.000           0.000           0.000           0.000           0.000           0.000           0.000           0.000           0.000           0.000    38023223.367   160888701.145           7.271          46.250           0.000           0.000           0.000           0.000  
> 2022  6  2  3 32 10.0000000  0 43
G01  20530302.722   107887469.207       -1993.580          47.750           0.000           0.000           0.000           0.000    20530305.133    84068163.521       -1553.461          47.250           0.000           0.000           0.000           0.000           0.000           0.000           0.000           0.000    20530302.756    80565318.495       -1488.696          52.250  
